[
  {
    "name": "Auckland",
    "iso2": "NZ",
    "lat": "-36.866667",
    "lng": "174.766667",
    "population": "1377200",
    "type": "city",
    "image": "mark.svg"
  },
  {
    "name": "Auckland",
    "iso2": "NZ",
    "lat": "-36.856667",
    "lng": "174.756667",
    "population": "1377200",
    "type": "cafe",
    "image": "cafe.svg"
  },
  {
    "name": "Auckland",
    "iso2": "NZ",
    "lat": "-36.842014",
    "lng": "174.762003",
    "population": "1377200",
    "type": "publicToilets",
    "image": "toilet.svg"
  },
  {
    "name": "Auckland",
    "iso2": "NZ",
    "lat": "-36.843294",
    "lng": "174.760963",
    "population": "1377200",
    "type": "publicToilets",
    "image": "toilet.svg"
  },
  {
    "name": "Auckland",
    "iso2": "NZ",
    "lat": "-36.844152",
    "lng": "174.766642",
    "population": "1377200",
    "type": "publicToilets",
    "image": "toilet.svg"
  },
  {
    "name": "Auckland",
    "iso2": "NZ",
    "lat": "-36.844821",
    "lng": "174.760358",
    "population": "1377200",
    "type": "publicToilets",
    "image": "toilet.svg"
  },
  {
    "name": "Auckland",
    "iso2": "NZ",
    "lat": "-36.844752",
    "lng": "174.758843",
    "population": "1377200",
    "type": "publicToilets",
    "image": "toilet.svg"
  },
  {
    "name": "Auckland",
    "iso2": "NZ",
    "lat": "-36.846927",
    "lng": "174.765403",
    "population": "1377200",
    "type": "publicToilets",
    "image": "toilet.svg"
  },
  {
    "name": "Auckland",
    "iso2": "NZ",
    "lat": "-36.848571",
    "lng": "174.766509",
    "population": "1377200",
    "type": "publicToilets",
    "image": "toilet.svg"
  },
  {
    "name": "Auckland",
    "iso2": "NZ",
    "lat": "-36.852121",
    "lng": "174.767304",
    "population": "1377200",
    "type": "publicToilets",
    "image": "toilet.svg"
  },
  {
    "name": "Auckland",
    "iso2": "NZ",
    "lat": "-36.850665",
    "lng": "174.763186",
    "population": "1377200",
    "type": "publicToilets",
    "image": "toilet.svg"
  },
  {
    "name": "Wellington",
    "iso2": "NZ",
    "lat": "-41.3",
    "lng": "174.783333",
    "population": "393400",
    "type": "city",
    "image": "mark.svg"
  },
  {
    "name": "Christchurch City",
    "iso2": "NZ",
    "lat": "-43.533333",
    "lng": "172.633333",
    "population": "363200",
    "type": "city",
    "image": "mark.svg"
  },
  {
    "name": "Waitakere",
    "iso2": "NZ",
    "lat": "-36.85",
    "lng": "174.55",
    "population": "208100",
    "type": "city",
    "image": "mark.svg"
  },
  {
    "name": "Northcote",
    "iso2": "NZ",
    "lat": "-36.815278",
    "lng": "174.745833",
    "population": "205605",
    "type": "city",
    "image": "mark.svg"
  },
  {
    "name": "Hamilton",
    "iso2": "NZ",
    "lat": "-37.783333",
    "lng": "175.283333",
    "population": "148200",
    "type": "city",
    "image": "mark.svg"
  },
  {
    "name": "Tauranga",
    "iso2": "NZ",
    "lat": "-37.686111",
    "lng": "176.166667",
    "population": "121500",
    "type": "city",
    "image": "mark.svg"
  },
  {
    "name": "Dunedin",
    "iso2": "NZ",
    "lat": "-45.866667",
    "lng": "170.5",
    "population": "117700",
    "type": "city",
    "image": "mark.svg"
  },
  {
    "name": "Lower Hutt",
    "iso2": "NZ",
    "lat": "-41.216667",
    "lng": "174.916667",
    "population": "102400",
    "type": "city",
    "image": "mark.svg"
  },
  {
    "name": "Palmerston North",
    "iso2": "NZ",
    "lat": "-40.35",
    "lng": "175.616667",
    "population": "82400",
    "type": "city",
    "image": "mark.svg"
  },
  {
    "name": "Nelson",
    "iso2": "NZ",
    "lat": "-41.273459",
    "lng": "173.282347",
    "population": "60800",
    "type": "city",
    "image": "mark.svg"
  },
  {
    "name": "Napier",
    "iso2": "NZ",
    "lat": "-39.483333",
    "lng": "176.916667",
    "population": "57800",
    "type": "city",
    "image": "mark.svg"
  },
  {
    "name": "Porirua Pa",
    "iso2": "NZ",
    "lat": "-41.133333",
    "lng": "174.833333",
    "population": "52500",
    "type": "city",
    "image": "mark.svg"
  },
  {
    "name": "New Plymouth",
    "iso2": "NZ",
    "lat": "-39.066667",
    "lng": "174.083333",
    "population": "52500",
    "type": "city",
    "image": "mark.svg"
  },
  {
    "name": "Invercargill",
    "iso2": "NZ",
    "lat": "-46.428681",
    "lng": "168.361596",
    "population": "49200",
    "type": "city",
    "image": "mark.svg"
  },
  {
    "name": "Wanganui",
    "iso2": "NZ",
    "lat": "-39.933333",
    "lng": "175.05",
    "population": "43200",
    "type": "city",
    "image": "mark.svg"
  },
  {
    "name": "Gisborne",
    "iso2": "NZ",
    "lat": "-38.653333",
    "lng": "178.004167",
    "population": "34300",
    "type": "city",
    "image": "mark.svg"
  },
  {
    "name": "Timaru",
    "iso2": "NZ",
    "lat": "-44.398444",
    "lng": "171.255194",
    "population": "27200",
    "type": "city",
    "image": "mark.svg"
  },
  {
    "name": "Pukekohe East",
    "iso2": "NZ",
    "lat": "-37.2",
    "lng": "174.95",
    "population": "26300",
    "type": "city",
    "image": "mark.svg"
  },
  {
    "name": "Paraparaumu Beach",
    "iso2": "NZ",
    "lat": "-40.9",
    "lng": "174.983333",
    "population": "25263",
    "type": "city",
    "image": "mark.svg"
  },
  {
    "name": "Taupo",
    "iso2": "NZ",
    "lat": "-38.683333",
    "lng": "176.083333",
    "population": "22600",
    "type": "city",
    "image": "mark.svg"
  },
  {
    "name": "Masterton",
    "iso2": "NZ",
    "lat": "-40.959722",
    "lng": "175.6575",
    "population": "20200",
    "type": "city",
    "image": "mark.svg"
  },
  {
    "name": "Levin",
    "iso2": "NZ",
    "lat": "-40.633333",
    "lng": "175.275",
    "population": "19550",
    "type": "city",
    "image": "mark.svg"
  },
  {
    "name": "Whakatane",
    "iso2": "NZ",
    "lat": "-37.983333",
    "lng": "177.0",
    "population": "18700",
    "type": "city",
    "image": "mark.svg"
  },
  {
    "name": "Tokoroa",
    "iso2": "NZ",
    "lat": "-38.233333",
    "lng": "175.866667",
    "population": "13350",
    "type": "city",
    "image": "mark.svg"
  },
  {
    "name": "Hawera",
    "iso2": "NZ",
    "lat": "-39.591667",
    "lng": "174.283333",
    "population": "11100",
    "type": "city",
    "image": "mark.svg"
  },
  {
    "name": "Greymouth",
    "iso2": "NZ",
    "lat": "-42.451111",
    "lng": "171.206778",
    "population": "10100",
    "type": "city",
    "image": "mark.svg"
  },
  {
    "name": "Thames",
    "iso2": "NZ",
    "lat": "-37.133333",
    "lng": "175.533333",
    "population": "6756",
    "type": "city",
    "image": "mark.svg"
  },
  {
    "name": "Kerikeri",
    "iso2": "NZ",
    "lat": "-35.216667",
    "lng": "173.966667",
    "population": "5856",
    "type": "city",
    "image": "mark.svg"
  },
  {
    "name": "Wanaka",
    "iso2": "NZ",
    "lat": "-44.709755",
    "lng": "169.129417",
    "population": "5037",
    "type": "city",
    "image": "mark.svg"
  },
  {
    "name": "Westport",
    "iso2": "NZ",
    "lat": "-41.752685",
    "lng": "171.583402",
    "population": "3900",
    "type": "city",
    "image": "mark.svg"
  },
  {
    "name": "Turangi",
    "iso2": "NZ",
    "lat": "-39.0",
    "lng": "175.933333",
    "population": "3240",
    "type": "city",
    "image": "mark.svg"
  },
  {
    "name": "Hokitika",
    "iso2": "NZ",
    "lat": "-42.717214",
    "lng": "170.963713",
    "population": "3078",
    "type": "city",
    "image": "mark.svg"
  },
  {
    "name": "Waioruarangi",
    "iso2": "NZ",
    "lat": "-42.4",
    "lng": "173.683333",
    "population": "2172",
    "type": "city",
    "image": "mark.svg"
  },
  {
    "name": "Te Anau",
    "iso2": "NZ",
    "lat": "-45.414649",
    "lng": "167.715672",
    "population": "1857",
    "type": "city",
    "image": "mark.svg"
  },
  {
    "name": "Waitangi",
    "iso2": "NZ",
    "lat": "-43.95",
    "lng": "-176.533333",
    "population": "300",
    "type": "city",
    "image": "mark.svg"
  }
]
